City_ID,City,Lat,Lng,Max Temp,Humidity,Cloudiness,Wind Speed,Country,Date
0,westport,41.1415,-73.3579,9.95,38,0,0.89,US,1731193277
1,grytviken,-54.2811,-36.5092,-4.63,73,11,4.63,GS,1731192876
2,adamstown,-25.066,-130.1015,23.16,88,99,9.42,PN,1731193449
3,waitangi,-43.9535,-176.5597,12.95,92,96,4.55,NZ,1731192857
4,punta arenas,-53.15,-70.9167,7.06,87,75,4.12,CL,1731192957
5,ancud,-41.8697,-73.8203,10.72,78,64,2.33,CL,1731193205
6,tazacorte,28.629,-17.9293,25.64,29,0,4.47,ES,1731193454
7,college,64.8569,-147.8028,-10.01,79,40,0.0,US,1731192673
8,papatowai,-46.5619,169.4708,13.13,56,99,2.98,NZ,1731193048
9,wailua homesteads,22.0669,-159.378,27.44,80,0,7.72,US,1731192901
10,fale old settlement,-9.3852,-171.2468,28.2,75,41,3.24,TK,1731193156
11,margaret river,-33.95,115.0667,11.63,74,6,2.21,AU,1731192862
12,luba,3.4568,8.5547,26.35,82,100,2.76,GQ,1731193461
13,blackmans bay,-43.0167,147.3167,12.51,62,73,0.89,AU,1731192981
14,walvis bay,-22.9575,14.5053,15.53,82,6,0.51,NA,1731193243
15,san antonio de pale,-1.4014,5.6325,26.1,83,75,5.99,GQ,1731193244
16,tralee,52.2704,-9.7026,12.4,92,100,2.05,IE,1731193383
17,holualoa,19.6228,-155.9522,26.42,82,75,3.6,US,1731193467
18,alpena,45.0617,-83.4327,7.28,82,0,4.12,US,1731193468
19,stanley,54.868,-1.6985,7.38,97,75,0.0,GB,1731193042
20,west island,-12.1568,96.8225,25.99,83,20,7.72,CC,1731193470
21,mount isa,-20.7333,139.5,33.87,14,84,3.09,AU,1731193472
22,hefei,31.8639,117.2808,15.01,100,75,1.0,CN,1731193473
23,kapa'a,22.0752,-159.319,28.18,81,75,7.2,US,1731193474
24,santo antonio,-6.3106,-35.4789,25.06,75,22,3.8,BR,1731193337
25,coquimbo,-29.9533,-71.3436,16.85,70,20,4.12,CL,1731193399
26,qaqortoq,60.7167,-46.0333,0.23,99,100,2.31,GL,1731192934
27,vila franca do campo,37.7167,-25.4333,20.23,99,97,2.76,PT,1731192883
28,nar'yan-mar,67.6713,53.087,-6.12,84,90,4.2,RU,1731192885
29,gazojak,41.1875,61.4036,5.29,53,0,1.72,TM,1731193482
30,port mathurin,-19.6833,63.4167,24.17,87,55,7.49,MU,1731192912
31,queenstown,-31.8976,26.8753,13.61,88,100,1.29,ZA,1731193234
32,atafu village,-8.5421,-172.5159,28.22,70,76,2.98,TK,1731192992
33,weno,7.4515,151.8468,30.97,70,75,3.09,FM,1731193489
34,hermanus,-34.4187,19.2345,17.11,85,24,6.55,ZA,1731193194
35,ewo,-0.8725,14.8206,20.93,97,100,1.84,CG,1731193491
36,klaksvik,62.2266,-6.589,9.11,97,96,9.65,FO,1731193493
37,mar del plata,-38.0023,-57.5575,23.01,56,0,3.6,AR,1731193055
38,thompson,55.7435,-97.8558,7.09,45,40,4.63,CA,1731193007
39,ilulissat,69.2167,-51.1,-4.99,74,100,4.63,GL,1731193496
40,ceeldheer,3.8488,47.1806,25.95,85,46,3.15,SO,1731193037
41,edinburgh of the seven seas,-37.0676,-12.3116,15.13,92,100,3.6,SH,1731193498
42,westminster,39.8367,-105.0372,5.57,86,75,3.09,US,1731193499
43,labytnangi,66.6572,66.4183,-15.18,87,72,3.51,RU,1731193501
44,tarawa,1.419,172.984,32.05,66,40,3.09,KI,1731193502
45,mugia,43.1041,-9.2179,17.17,96,100,3.9,ES,1731193369
46,mount pearl,47.5166,-52.7813,3.97,94,100,9.26,CA,1731193326
47,flying fish cove,-10.4217,105.6791,25.82,94,100,5.14,CX,1731193180
48,arkadelphia,34.1209,-93.0538,21.87,88,100,0.0,US,1731193507
49,natal,-5.795,-35.2094,27.12,74,20,4.63,BR,1731193086
50,port-aux-francais,-49.35,70.2167,5.28,83,84,10.18,TF,1731193509
51,whitehorse,60.7161,-135.0538,2.43,64,40,5.66,CA,1731193512
52,jamestown,42.097,-79.2353,8.8,55,0,2.57,US,1731193513
53,remire-montjoly,4.9167,-52.2667,28.02,83,0,3.09,GF,1731193058
54,vila velha,-20.3297,-40.2925,22.19,93,75,4.02,BR,1731193477
55,acarau,-2.8856,-40.12,25.79,79,41,8.1,BR,1731193267
56,mpika,-11.8343,31.4529,19.28,63,33,3.52,ZM,1731193518
57,bargaal,11.2864,51.0773,24.54,74,82,2.82,SO,1731193519
58,mahibadhoo,3.7833,72.9667,27.73,75,100,4.59,MV,1731193520
59,memari,23.2,88.1167,20.51,75,0,2.7,IN,1731193460
60,ola,59.5833,151.2833,-15.72,72,75,3.64,RU,1731193523
61,tsiombe,-25.3,45.4833,22.12,85,8,1.44,MG,1731193328
62,la'ie,21.6477,-157.9253,27.28,76,25,2.68,US,1731193525
63,fortuna,40.5982,-124.1573,15.19,57,0,0.0,US,1731193130
64,ta`u,-14.2336,-169.5144,27.11,82,77,9.13,AS,1731193527
65,carnarvon,-24.8667,113.6333,20.6,70,23,8.92,AU,1731193178
66,sandnessjoen,66.0217,12.6316,7.84,69,41,5.09,NO,1731193393
67,maluso,6.543,121.8753,27.64,84,71,3.23,PH,1731193531
68,hamilton,39.1834,-84.5333,15.43,55,75,3.6,US,1731192852
69,badger,64.8,-147.5333,-10.05,83,0,0.0,US,1731193056
70,mccook,40.2019,-100.6257,8.03,87,75,2.06,US,1731193536
71,tazovsky,67.4667,78.7,-7.67,94,100,9.22,RU,1731193541
72,itapira,-22.4361,-46.8217,19.07,85,25,3.86,BR,1731193543
73,klyuchi,52.2667,79.1667,-3.64,90,100,9.51,RU,1731192960
74,puerto natales,-51.7236,-72.4875,10.25,53,40,8.23,CL,1731193301
75,pul-e khumri,35.9446,68.7151,9.67,91,99,0.47,AF,1731193546
76,grand falls-windsor,48.9332,-55.6649,0.96,84,97,8.99,CA,1731193548
77,invercargill,-46.4,168.35,16.68,51,100,1.34,NZ,1731192842
78,mendi,-6.1761,143.6513,16.7,86,100,0.59,PG,1731193550
79,bredasdorp,-34.5322,20.0403,15.99,83,32,6.32,ZA,1731193551
80,albany,42.6001,-73.9662,6.23,53,0,2.63,US,1731193487
81,teploye,53.6202,37.5903,3.09,97,34,3.96,RU,1731193554
82,olonkinbyen,70.9221,-8.7187,1.0,100,100,6.85,SJ,1731193556
83,keelung,25.1283,121.7419,23.94,97,98,3.76,TW,1731193557
84,wotho,10.1657,166.0102,28.57,78,61,8.5,MH,1731193558
85,villa gesell,-37.2639,-56.973,18.73,74,99,7.67,AR,1731193296
86,kloulklubed,7.0419,134.2556,28.63,77,90,3.24,PW,1731193561
87,antofagasta,-23.65,-70.4,18.6,75,13,1.25,CL,1731192878
88,ketchikan,55.3422,-131.6461,6.99,87,100,4.12,US,1731193563
89,tutoia,-2.7619,-42.2744,26.46,81,16,6.6,BR,1731193564
90,ciudad lazaro cardenas,17.9583,-102.2,28.58,72,37,3.51,MX,1731193566
91,prado,-17.3411,-39.2208,25.54,86,62,6.33,BR,1731193533
92,saldanha,-33.0117,17.9442,15.03,86,0,2.22,ZA,1731193569
93,puerto ayora,-0.7393,-90.3518,21.97,88,19,2.24,EC,1731193570
94,baruun-urt,46.6806,113.2792,-5.43,86,4,1.21,MN,1731193571
95,terra roxa,-23.8557,-50.0314,19.3,86,34,4.5,BR,1731193572
96,christchurch,-43.5333,172.6333,18.56,55,89,8.23,NZ,1731193322
97,tiksi,71.6872,128.8694,-13.77,93,100,3.31,RU,1731193574
98,bethel,41.3712,-73.414,7.72,42,0,0.45,US,1731193576
99,halifax,44.6453,-63.5724,3.03,71,9,7.6,CA,1731192770
100,iqaluit,63.7506,-68.5145,-8.15,67,100,5.14,CA,1731193578
101,villa bruzual,9.3328,-69.1208,26.01,84,99,1.88,VE,1731193581
102,vilyuchinsk,52.9306,158.4028,-7.85,75,37,2.56,RU,1731193582
103,alice springs,-23.7,133.8833,24.75,41,100,1.54,AU,1731193353
104,oranjemund,-28.55,16.4333,14.83,96,63,2.94,NA,1731193587
105,bilibino,68.0546,166.4372,-23.93,99,97,0.84,RU,1731193588
106,ushuaia,-54.8,-68.3,7.81,81,75,2.06,AR,1731193590
107,great falls,47.5002,-111.3008,13.66,48,0,4.63,US,1731193518
108,crane,31.3974,-102.3501,20.85,19,0,2.33,US,1731193592
109,ust-nera,64.5667,143.2,-21.39,98,100,1.6,RU,1731193593
110,antalaha,-14.9003,50.2788,22.77,79,2,3.63,MG,1731193594
111,hawaiian paradise park,19.5933,-154.9731,27.71,79,40,2.57,US,1731193596
112,takab,36.4009,47.1133,5.01,67,61,1.54,IR,1731193598
113,constantia,44.1833,28.65,6.5,83,92,6.53,RO,1731193414
114,el fasher,13.6279,25.3494,23.77,23,5,3.78,SD,1731193335
115,selfoss,63.9331,-20.9971,10.02,94,100,8.03,IS,1731193412
116,tolanaro,-25.0319,46.9987,21.41,92,35,1.71,MG,1731193604
117,nadym,65.5333,72.5167,-7.01,95,100,7.06,RU,1731193605
118,dhidhdhoo,6.8833,73.1,27.94,70,45,0.38,MV,1731193606
119,tshikapa,-6.4167,20.8,20.91,99,100,1.07,CD,1731193607
120,kurumkan,54.3,110.3,-9.2,91,93,2.7,RU,1731193609
121,georgetown,5.4112,100.3354,26.96,82,20,1.03,MY,1731193529
122,glace bay,46.1969,-59.957,3.87,85,75,13.38,CA,1731193611
123,nema,57.5067,50.5011,2.66,83,95,6.73,RU,1731193613
124,port elizabeth,-33.918,25.5701,14.62,96,87,1.87,ZA,1731193614
125,peace river,56.2501,-117.286,2.99,55,45,2.44,CA,1731193615
126,hithadhoo,-0.6,73.0833,28.25,71,90,5.53,MV,1731193443
127,antonio enes,-16.2325,39.9086,23.15,87,0,0.91,MZ,1731193617
128,labrador city,52.9463,-66.9114,-6.05,73,75,4.12,CA,1731193387
129,yellowknife,62.456,-114.3525,-13.71,66,75,4.12,CA,1731193577
130,general acha,-37.377,-64.6043,19.38,91,88,8.22,AR,1731193363
131,pisco,-13.7,-76.2167,22.03,60,0,7.72,PE,1731193442
132,codrington,-38.2667,141.9667,15.18,59,46,3.05,AU,1731193623
133,revda,56.801,59.9303,0.85,96,100,6.12,RU,1731193243
134,arteche,12.2645,125.4048,26.44,91,100,3.19,PH,1731193625
135,nguekhokh,14.5128,-17.005,25.49,65,0,4.63,SN,1731193598
136,iskateley,67.6803,53.1512,-6.17,84,94,4.18,RU,1731193628
137,mu'minobod,38.1085,70.0285,6.35,88,99,0.5,TJ,1731193629
138,bel ombre,-4.6167,55.4167,27.37,75,59,2.66,SC,1731193630
139,coahuayana de hidalgo,18.7,-103.6583,28.75,68,14,2.34,MX,1731193605
140,tillaberi,14.2117,1.4531,26.19,16,1,4.46,NE,1731193632
141,haiku-pauwela,20.9219,-156.3051,27.01,67,40,12.96,US,1731193634
142,linjiang,41.8069,126.9078,4.89,87,65,1.03,CN,1731193418
143,chonchi,-42.6128,-73.8092,11.18,81,46,1.76,CL,1731193636
144,lihue,21.9789,-159.3672,27.77,77,75,7.2,US,1731193637
145,shortandy,51.7006,70.9994,-2.32,95,100,11.52,KZ,1731193638
146,arawa,-6.2132,155.5367,28.31,74,74,2.88,PG,1731193640
147,longyearbyen,78.2186,15.6401,-4.09,74,75,4.12,SJ,1731193393
148,anadyr,64.75,177.4833,-4.72,92,20,0.89,RU,1731193641
149,mathis,28.0945,-97.828,29.2,43,0,3.1,US,1731193646
150,howrah,22.5892,88.3103,23.0,88,0,0.0,IN,1731193647
151,sarupathar,26.1984,93.8094,17.74,91,0,0.81,IN,1731193649
152,yuzhno-kurilsk,44.0306,145.8556,7.81,70,23,0.85,RU,1731193650
153,khlevnoye,52.1951,39.0932,2.65,90,47,3.99,RU,1731193652
154,miquelon,47.0975,-56.3814,4.02,69,92,15.89,PM,1731193653
155,ribeira grande,38.5167,-28.7,20.99,97,100,3.13,PT,1731193654
156,udachny,66.4167,112.4,-15.53,92,100,3.29,RU,1731193655
157,qurayyat,31.3318,37.3428,13.1,58,0,3.09,SA,1731193656
158,petropavlovka,50.6114,105.3196,-10.71,96,88,1.11,RU,1731193657
159,aflou,34.1128,2.1023,10.72,84,52,5.88,DZ,1731193658
160,lodja,-3.4833,23.4333,20.86,94,100,1.38,CD,1731193660
161,mushie,-3.0167,16.9,21.19,99,100,2.18,CD,1731193661
162,afaahiti,-17.75,-149.2833,24.62,89,85,6.1,PF,1731193662
163,petropavlovsk-kamchatsky,53.0452,158.6483,-8.67,67,75,4.0,RU,1731193663
164,oum hadjer,13.2954,19.6966,24.75,19,61,4.44,TD,1731193664
165,najran,17.4924,44.1277,16.22,42,0,0.95,SA,1731193646
166,chernyshevskiy,63.0128,112.4714,-10.48,92,100,4.48,RU,1731193668
167,kismayo,-0.3582,42.5454,26.55,80,13,4.62,SO,1731193669
168,cockburn town,21.4612,-71.1419,27.52,79,26,2.02,TC,1731193670
169,kavaratti,10.5669,72.642,27.91,71,5,0.64,IN,1731193671
170,isafjordur,66.0755,-23.124,4.63,95,100,2.77,IS,1731193650
171,aasiaat,68.7098,-52.8699,-6.01,92,100,0.54,GL,1731193674
172,murun-kuren,49.6342,100.1625,-6.49,55,100,1.06,MN,1731193677
173,kapuskasing,49.4169,-82.4331,4.41,67,17,5.52,CA,1731193678
174,hasaki,35.7333,140.8333,18.0,75,98,6.1,JP,1731193542
175,dazkiri,37.9186,29.8606,1.8,43,100,1.42,TR,1731193680
176,el bauga,18.262,33.9081,26.97,39,1,5.28,SD,1731193682
177,brazzaville,-4.2658,15.2832,22.26,95,100,0.79,CG,1731193683
178,utrik,11.2278,169.8474,28.37,79,88,10.09,MH,1731193684
179,pacific grove,36.6177,-121.9166,20.2,56,0,3.13,US,1731193685
180,karratha,-20.7377,116.8463,29.14,22,77,4.07,AU,1731193687
181,kuching,1.55,110.3333,26.1,99,20,0.0,MY,1731193589
182,sultanah,24.4926,39.5857,27.25,22,0,3.09,SA,1731193689
183,colonia,50.9333,6.95,9.51,89,100,3.6,DE,1731193691
184,kingston,17.997,-76.7936,25.09,93,99,0.61,JM,1731193655
185,luderitz,-26.6481,15.1594,14.2,93,56,4.27,NA,1731193693
186,voi,-3.3945,38.563,22.6,86,31,3.53,KE,1731193694
187,naze,28.3667,129.4833,23.88,82,99,7.53,JP,1731193695
188,mitu,1.1983,-70.1733,23.84,98,100,0.94,CO,1731193696
189,timmins,48.4669,-81.3331,4.9,48,40,4.63,CA,1731193550
190,sola,-13.8833,167.55,26.48,78,37,8.11,VU,1731193698
191,aykhal,66.0,111.5,-15.16,92,100,6.43,RU,1731193700
192,hilo,19.7297,-155.09,27.83,76,40,1.34,US,1731193409
193,nicoya,10.1483,-85.452,22.96,96,100,0.85,CR,1731193702
194,kodiak,57.79,-152.4072,3.73,87,100,10.8,US,1731193690
195,masingbi,8.7833,-11.95,23.85,71,74,0.47,SL,1731193704
196,willowmore,-33.2926,23.4895,13.63,77,99,6.68,ZA,1731193705
197,eraan,9.0629,117.7016,26.63,86,25,0.94,PH,1731193706
198,la passe,45.5549,-0.8967,14.72,92,21,3.05,FR,1731193707
199,buka,40.8108,69.1986,6.99,65,25,1.65,UZ,1731193709
200,zhuji,29.7188,120.2423,16.39,97,100,1.23,CN,1731193711
201,coron,11.9986,120.2043,26.27,86,11,1.16,PH,1731193712
202,tabou,4.423,-7.3528,25.38,88,98,3.45,CI,1731193714
203,kropp,54.4167,9.5167,5.03,90,100,1.54,DE,1731193715
204,vorgashor,67.5833,63.95,-11.33,87,77,7.84,RU,1731193716
205,dryden,49.7833,-92.7503,8.12,65,71,4.81,CA,1731193717
206,ugoofaaru,5.6667,73.0,27.29,75,51,0.81,MV,1731193486
207,pimenta bueno,-11.6725,-61.1936,25.19,82,69,1.97,BR,1731193720
208,hit,33.6416,42.8251,19.52,27,100,2.98,IQ,1731193721
209,fort st. john,56.2499,-120.8529,1.22,71,67,1.23,CA,1731193722
210,nemuro,43.3236,145.575,6.49,79,43,4.39,JP,1731193724
211,bisert',56.8617,59.0523,1.11,97,100,5.4,RU,1731193725
212,st. john's,47.5649,-52.7093,4.43,93,100,16.09,CA,1731193726
213,praia da vitoria,38.7333,-27.0667,18.95,94,96,3.22,PT,1731193727
214,ouarzazat,30.9189,-6.8934,18.87,33,100,2.07,MA,1731193729
215,petrozavodsk,61.7849,34.3469,-0.17,87,11,3.69,RU,1731193731
216,talnakh,69.4865,88.3972,-20.65,96,41,2.35,RU,1731193732
217,namibe,-15.1961,12.1522,21.01,68,94,4.97,AO,1731193662
218,gazipasa,36.2694,32.3179,17.05,45,0,2.57,TR,1731193734
219,callao,-12.0667,-77.15,23.18,68,0,7.2,PE,1731193736
220,sinop,41.7711,34.8709,5.42,90,4,3.02,TR,1731193738
221,vadso,70.0744,29.7487,3.09,70,100,6.17,NO,1731193739
222,charters towers,-20.1,146.2667,28.29,51,23,6.97,AU,1731193340
223,sompeta,18.9333,84.6,22.69,83,0,3.11,IN,1731193741
224,ponnani,10.767,75.9252,23.98,80,100,3.06,IN,1731193744
225,dickinson,29.4608,-95.0513,25.59,85,75,4.63,US,1731193745
226,kovur,14.4833,79.9833,24.71,80,74,2.27,IN,1731193747
227,ziguinchor,12.5833,-16.2719,24.18,50,1,1.45,SN,1731193748
228,kavalerovo,44.2661,135.0572,2.49,83,4,0.86,RU,1731193749
229,east london,-33.0153,27.9116,17.28,80,16,1.96,ZA,1731193579
230,saipan,15.1355,145.701,29.39,82,20,6.69,MP,1731193585
231,bamboo flat,11.7,92.7167,26.53,81,99,2.58,IN,1731193752
232,atar,20.5169,-13.0499,25.52,14,53,3.01,MR,1731193753
233,nurdagi,37.1773,36.7419,13.88,31,72,3.26,TR,1731193754
234,alotau,-10.3069,150.4462,28.49,73,100,2.49,PG,1731193325
235,port alfred,-33.5906,26.891,16.61,75,31,1.82,ZA,1731193757
236,williston,48.147,-103.618,13.35,48,97,0.83,US,1731193758
237,priozersk,61.0393,30.1291,1.72,91,11,3.01,RU,1731193759
238,burumburum,11.3911,8.7234,19.96,29,41,2.37,NG,1731193760
239,mossel bay,-34.1831,22.146,16.9,84,64,7.1,ZA,1731193761
240,san rafael del sur,11.8485,-86.4384,24.38,91,100,1.96,NI,1731193762
241,ribadesella,43.4614,-5.0596,16.13,79,100,0.77,ES,1731193764
242,touros,-5.1989,-35.4608,25.7,76,15,5.49,BR,1731193765
243,kirensk,57.7853,108.1119,-7.87,93,100,3.27,RU,1731193766
244,vanimo,-2.6741,141.3028,28.05,78,34,1.37,PG,1731193768
245,nuku'alofa,-21.1333,-175.2,26.19,83,20,5.66,TO,1731193119
246,monrovia,6.3005,-10.7969,26.86,78,100,2.67,LR,1731193770
247,port blair,11.6667,92.75,27.09,80,99,2.74,IN,1731193771
248,lebu,-37.6167,-73.65,12.79,79,100,3.01,CL,1731193772
249,sao vicente,-23.9631,-46.3919,19.99,26,99,1.5,BR,1731193774
250,paracuru,-3.41,-39.0306,25.76,81,9,5.8,BR,1731193775
251,puerto baquerizo moreno,-0.9,-89.6,21.08,73,46,4.81,EC,1731193776
252,cabinda,-5.55,12.2,25.07,89,100,1.55,AO,1731193777
253,dingli,35.8614,14.3822,17.12,77,20,2.06,MT,1731193778
254,wenling,28.3669,121.36,19.07,86,96,2.57,CN,1731193268
255,burela de cabo,43.65,-7.4,13.11,92,100,2.77,ES,1731193783
256,brookings,44.3114,-96.7984,8.0,97,100,5.66,US,1731193784
257,papao,-17.75,-149.55,28.82,92,68,6.94,PF,1731193320
258,strezhevoy,60.7333,77.5889,-4.75,94,100,7.22,RU,1731193717
259,port saint john's,-31.6229,29.5448,18.76,87,100,2.95,ZA,1731193301
260,an nimas,19.1455,42.1201,13.32,39,2,3.21,SA,1731193790
261,fort mcmurray,56.7268,-111.381,7.77,42,100,3.09,CA,1731193252
262,khedbrahma,24.0333,73.05,22.53,40,0,1.55,IN,1731193793
263,achinsk,56.2694,90.4993,-4.37,61,81,5.77,RU,1731193524
264,san andres,12.5847,-81.7006,29.01,79,40,2.57,CO,1731193353
265,nova sintra,14.8667,-24.7167,26.5,76,64,5.63,CV,1731193796
266,hadibu,12.65,54.0333,25.54,81,81,4.08,YE,1731193797
267,dudinka,69.4058,86.1778,-17.47,91,64,4.33,RU,1731193799
268,pierre,44.3683,-100.351,8.51,100,100,2.57,US,1731193800
269,rio grande,-32.035,-52.0986,17.11,73,0,4.52,BR,1731193762
270,puerto del carmen,28.9231,-13.6658,24.73,41,0,1.54,ES,1731193802
271,kikwit,-5.041,18.8162,20.67,98,99,0.88,CD,1731193803
272,aykol,38.1751,77.2132,9.61,47,20,2.27,CN,1731193804
273,jingdezhen,29.2947,117.2079,16.85,94,100,1.17,CN,1731193806
274,grand gaube,-20.0064,57.6608,24.65,88,4,0.89,MU,1731193807
275,enewetak,11.3474,162.3373,28.47,79,20,6.32,MH,1731193808
276,huarmey,-10.0681,-78.1522,19.85,81,62,4.02,PE,1731193809
277,arraial do cabo,-22.9661,-42.0278,22.83,83,100,6.58,BR,1731193667
278,woodford green,51.6094,0.0233,8.13,76,100,3.09,GB,1731193562
279,brisas de zicatela,15.8369,-97.0419,29.29,84,0,1.03,MX,1731193814
280,battagram,34.6772,73.0233,15.08,53,14,1.81,PK,1731193815
281,fauske,67.2588,15.3918,2.75,70,52,2.32,NO,1731193816
282,'ain benian,36.8028,2.9219,17.03,77,93,5.72,DZ,1731193817
283,kone,-21.0595,164.8658,30.61,37,0,2.8,NC,1731193257
284,egersund,58.4513,5.9997,8.23,78,98,7.16,NO,1731193646
285,cam ranh,11.9214,109.1591,23.98,83,20,2.57,VN,1731193821
286,khandyga,62.6667,135.6,-17.21,99,99,0.73,RU,1731193822
287,barcelos,41.5388,-8.6151,13.13,90,75,1.12,PT,1731193824
288,wau,7.7029,27.9953,26.75,54,67,0.2,SS,1731193825
289,ixtapa,20.7,-105.2,28.57,70,100,3.6,MX,1731193826
290,new norfolk,-42.7826,147.0587,14.28,42,63,3.02,AU,1731193665
291,lake city,30.1897,-82.6393,23.16,83,100,2.57,US,1731193617
292,labasa,-16.4167,179.3833,28.81,66,100,3.65,FJ,1731193830
293,turpan,42.9333,89.1667,8.33,57,35,1.48,CN,1731193832
294,margate,51.3813,1.3862,8.16,86,87,3.49,GB,1731193584
295,cabo san lucas,22.8909,-109.9124,28.17,55,0,6.17,MX,1731193802
296,zwevezele,51.0361,3.2107,8.77,97,100,1.79,BE,1731193835
297,egilsstadir,65.2653,-14.3948,11.95,66,75,9.26,IS,1731193295
298,mirny,62.5353,113.9611,-9.11,90,100,4.5,RU,1731193837
299,chandbali,20.7833,86.7667,21.48,79,0,3.23,IN,1731193839
300,saint croix,17.7397,-64.7388,27.25,90,75,4.63,VI,1731193841
301,puerto aysen,-45.4,-72.7,6.96,99,100,1.98,CL,1731193843
302,chibougamau,49.9168,-74.3659,-1.21,74,100,6.17,CA,1731193844
303,misratah,32.3754,15.0925,20.96,63,21,2.15,LY,1731193845
304,kolpashevo,58.3131,82.9089,-5.83,80,95,8.67,RU,1731193292
305,grass valley,39.2191,-121.0611,17.21,40,0,2.06,US,1731193660
306,muroran,42.3172,140.9881,8.5,69,12,0.17,JP,1731193849
307,pinarbasi,38.7229,36.3931,3.73,44,87,2.67,TR,1731193850
308,vryburg,-26.9566,24.7284,17.59,86,100,0.61,ZA,1731193851
309,gadzhiyevo,69.2551,33.3362,2.47,82,99,9.36,RU,1731193852
310,kolonia town,6.964,158.206,32.0,66,40,4.12,FM,1731193854
311,khovd,48.0056,91.6419,-3.59,59,28,3.04,MN,1731193855
312,pyin oo lwin,22.0333,96.4667,14.81,95,58,1.49,MM,1731193858
313,lethem,3.3803,-59.7968,32.97,35,98,3.02,GY,1731193859
314,kununurra,-15.7667,128.7333,29.99,79,70,1.54,AU,1731193860
315,arkalyk,50.2486,66.9114,-1.28,97,100,14.65,KZ,1731193861
316,ambodifotatra,-16.9833,49.85,24.49,82,27,1.87,MG,1731193862
317,verkhnevilyuysk,63.4453,120.3167,-9.41,93,98,3.01,RU,1731193863
318,uturoa,-16.7333,-151.4333,27.15,79,61,4.86,PF,1731193865
319,lingyuan,41.24,119.4011,8.0,85,100,0.93,CN,1731193866
320,san patricio,28.017,-97.5169,28.97,49,0,3.41,US,1731193378
321,le grazie di ancona,43.6008,13.5153,12.22,88,100,1.03,IT,1731193869
322,jolo,6.05,121.0167,27.97,82,97,1.85,PH,1731193870
323,salur,18.5333,83.2167,21.19,84,1,1.42,IN,1731193871
324,tera,14.0078,0.7531,26.52,16,3,4.49,NE,1731193692
325,jiuquan,39.7432,98.5174,4.66,51,50,2.25,CN,1731193625
326,dakhla,23.6848,-15.958,21.75,62,98,4.63,EH,1731193875
327,kill devil hills,36.0307,-75.676,14.43,66,0,5.66,US,1731193876
328,punta gorda,26.9298,-82.0454,27.77,77,0,3.09,US,1731193826
329,al kharijah,25.4514,30.5464,17.99,45,0,3.35,EG,1731193878
330,villa aldama,19.6167,-97.2167,14.68,79,39,2.55,MX,1731193881
331,adirampattinam,10.35,79.4,24.03,89,95,5.37,IN,1731193882
332,sisimiut,66.9395,-53.6735,-4.33,88,100,3.48,GL,1731193883
333,sorochinsk,52.4338,53.1583,1.47,97,96,6.96,RU,1731193884
334,purna,19.1833,77.05,19.28,59,0,0.68,IN,1731193886
335,portland,45.5234,-122.6762,13.75,76,100,2.06,US,1731193603
336,piton saint-leu,-21.2196,55.3151,21.06,73,0,2.57,RE,1731193888
337,yingshang chengguanzhen,32.6295,116.2701,16.08,89,100,2.47,CN,1731193889
338,wuhai,39.6647,106.8122,7.96,59,65,2.88,CN,1731193891
339,port lincoln,-34.7333,135.8667,16.2,71,68,6.66,AU,1731193892
340,san fernando de apure,7.8878,-67.4724,27.87,75,78,1.93,VE,1731193893
341,mil'kovo,55.6078,37.7956,6.86,60,100,5.7,RU,1731193894
342,binkolo,8.9533,-11.9779,23.47,72,63,0.71,SL,1731193895
343,capbreton,43.6422,-1.4282,13.4,85,89,4.11,FR,1731193897
344,tughyl,47.7252,84.2063,0.76,75,100,4.14,KZ,1731193898
345,choma,-16.8065,26.9531,21.03,52,2,2.23,ZM,1731193899
346,urumqi,43.801,87.6005,-0.47,93,0,2.0,CN,1731193900
347,dalbandin,28.8947,64.4101,17.21,30,0,3.89,PK,1731193901
348,vuktyl,63.8567,57.3094,-6.13,84,89,6.42,RU,1731193902
349,kargasok,59.0556,80.8572,-4.68,83,100,9.63,RU,1731193903
350,gurupi,-11.7292,-49.0686,23.34,94,100,3.49,BR,1731193906
351,buncrana,55.1333,-7.45,10.92,92,100,3.83,IE,1731193907
352,loukhi,66.0764,33.0381,0.45,74,40,4.89,RU,1731193908
353,birobidzhan,48.8,132.95,0.24,98,100,0.56,RU,1731193911
354,yuxia,34.0615,108.6291,14.72,78,65,1.16,CN,1731193912
355,itamaraca,-7.7478,-34.8256,25.28,80,63,3.97,BR,1731193913
356,kalmunai,7.4167,81.8167,24.45,90,91,4.56,LK,1731193914
357,kalawit,8.0667,122.5167,27.07,85,72,0.24,PH,1731193915
358,uzgen,40.7699,73.3007,4.63,69,86,1.51,KG,1731193916
359,douentza,14.9951,-2.9517,25.14,16,5,2.33,ML,1731193918
360,tbeng meanchey,13.8167,104.9667,21.55,92,76,0.71,KH,1731193919
361,biharamulo,-2.6319,31.3089,17.74,60,94,0.39,TZ,1731193698
362,al hadd,26.2456,50.6542,26.7,77,2,1.34,BH,1731193922
363,pokrovsk,48.282,37.1758,2.13,87,5,1.95,UA,1731193923
364,urangan,-25.3,152.9,24.76,77,100,3.95,AU,1731193928
365,aberdeen,57.1437,-2.0981,7.33,100,100,3.09,GB,1731193851
366,dongola,19.1667,30.4833,21.91,31,4,5.54,SD,1731193931
367,kimbe,-5.5502,150.1429,30.14,67,88,1.02,PG,1731193932
368,al burayqah,30.4062,19.5739,19.35,62,0,3.81,LY,1731193933
369,hammerfest,70.6634,23.6821,5.25,87,75,5.14,NO,1731193934
370,timbuktu,16.7735,-3.0074,25.19,11,0,4.35,ML,1731193937
371,cleveland,41.4995,-81.6954,12.0,45,0,3.6,US,1731193737
372,dali,25.7,100.1833,9.35,87,0,0.47,CN,1731193923
373,kargopol',61.5071,38.9456,0.23,84,12,4.88,RU,1731193940
374,progreso,21.2833,-89.6667,26.99,82,100,3.0,MX,1731193941
375,mucuri,-18.0864,-39.5508,25.02,89,88,5.1,BR,1731193944
376,al bayda',32.7627,21.7551,11.74,83,49,3.91,LY,1731193945
377,moires,35.0532,24.8744,14.56,80,8,2.45,GR,1731193946
378,polyarnyy,69.1989,33.4478,2.25,84,99,9.43,RU,1731193948
379,mandan,46.8267,-100.8896,8.23,92,100,3.6,US,1731193949
380,south hedland,-20.4089,118.5983,27.96,74,72,3.6,AU,1731193950
381,lorengau,-2.0226,147.2712,28.8,73,11,0.44,PG,1731193952
382,tura,25.5198,90.2201,18.88,80,0,1.72,IN,1731193860
383,crescent city,41.756,-124.2018,15.54,61,0,3.09,US,1731193955
384,kaa-khem,51.6833,94.7333,-3.46,40,100,0.72,RU,1731193956
385,arfoud,31.4348,-4.2375,21.67,31,97,3.05,MA,1731193958
386,lindisfarne,-42.8333,147.35,14.44,54,75,5.66,AU,1731193959
387,island harbour,50.724,-1.2758,8.44,67,98,1.25,GB,1731193960
388,manda,-10.4667,34.5833,24.64,71,9,3.05,TZ,1731193961
389,mana,5.6592,-53.7767,27.31,85,18,7.28,GF,1731193964
390,jabat,7.75,168.9751,27.64,81,94,10.88,MH,1731193965
391,dingzhou,38.5131,114.9956,11.28,74,57,3.09,CN,1731193780
392,marianna,30.7744,-85.2269,26.02,69,100,2.57,US,1731193856
393,palangkaraya,-2.2,113.8333,23.6,96,99,0.76,ID,1731193970
394,burang,30.25,81.1667,-0.04,82,22,1.39,CN,1731193691
395,santo domingo de los colorados,-0.25,-79.15,24.23,64,40,0.26,EC,1731193972
396,cidreira,-30.1811,-50.2056,18.56,67,0,3.5,BR,1731193973
397,malanje,-9.5402,16.341,18.06,99,97,1.77,AO,1731193974
398,boerne,29.7947,-98.732,24.26,45,0,0.0,US,1731193761
399,gaillac,43.9016,1.8969,13.66,96,100,2.41,FR,1731193977
400,filey,54.21,-0.2892,7.75,39,100,1.91,GB,1731193978
401,gizo,-8.103,156.8419,28.9,72,91,2.88,SB,1731193979
402,boyalik,41.2634,28.6314,11.55,71,100,6.09,TR,1731193980
403,pirapora do bom jesus,-23.3969,-47.0022,16.86,91,84,3.53,BR,1731193982
404,hami,42.8,93.45,6.55,56,53,4.28,CN,1731193983
405,avarua,-21.2078,-159.775,24.03,60,40,6.17,CK,1731193984
406,stornoway,58.2093,-6.3865,10.05,84,100,6.69,GB,1731193985
407,geraldton,-28.7667,114.6,15.23,77,0,4.63,AU,1731193964
408,tokar,18.4254,37.729,29.09,72,8,5.49,SD,1731193988
409,greenville,35.6127,-77.3663,13.96,64,0,2.57,US,1731193740
410,kushiro,42.975,144.3747,4.81,74,3,1.34,JP,1731193990
411,brokopondo,4.75,-55.1667,29.99,66,69,4.88,SR,1731193992
412,richards bay,-28.783,32.0377,20.32,88,100,5.09,ZA,1731193993
413,happy valley-goose bay,53.3168,-60.3315,-3.03,66,54,2.96,CA,1731193994
414,galliano,29.4422,-90.2992,26.0,83,100,4.63,US,1731193995
415,hulan ergi,47.2042,123.6333,5.11,59,95,6.43,CN,1731193996
416,jieshi,22.8134,115.8257,22.64,83,99,5.97,CN,1731193998
417,katsuura,35.1333,140.3,17.34,87,100,1.52,JP,1731193999
418,howard springs,-12.497,131.047,30.49,71,13,2.46,AU,1731193438
419,homer,59.6425,-151.5483,5.43,87,0,2.57,US,1731194001
420,guymon,36.6828,-101.4816,14.0,44,0,3.09,US,1731194002
421,ocean shores,46.9737,-124.1563,12.23,97,100,2.57,US,1731193846
422,smithers,54.7804,-127.1743,2.89,74,12,0.43,CA,1731194004
423,severnoye,56.3491,78.3619,-3.56,92,100,8.74,RU,1731194006
424,altai,46.3722,96.2583,-3.14,58,80,3.77,MN,1731194007
425,ciudad de armeria,18.9333,-103.9667,28.45,68,8,2.54,MX,1731193726
426,kouroussa,10.65,-9.8833,23.61,49,4,0.22,GN,1731194009
427,franklin,39.9667,-83.0166,13.76,42,75,2.57,US,1731194011
428,eberswalde,52.8349,13.8195,3.69,76,9,2.34,DE,1731194012
429,alpine,32.835,-116.7664,23.64,16,0,6.17,US,1731194013
430,zmeinogorsk,51.1567,82.195,-3.7,73,85,9.11,RU,1731194014
431,villa mercedes,-33.6757,-65.4578,26.16,45,0,8.56,AR,1731194002
432,san mateo ixtatan,15.8319,-91.4781,11.05,97,86,2.03,GT,1731194016
433,phalaborwa,-23.943,31.1411,24.6,54,79,0.94,ZA,1731194017
434,ambon,-3.6954,128.1814,30.49,100,60,1.82,ID,1731194020
435,pak phanang,8.3511,100.202,24.31,94,100,2.89,TH,1731194021
436,colares,38.7992,-9.4469,15.55,73,18,6.16,PT,1731194022
437,somerton,32.5964,-114.7097,25.16,11,0,2.06,US,1731194023
438,witu,-2.3889,40.4382,25.34,86,14,3.92,KE,1731194024
439,kerikeri,-35.2268,173.9474,21.9,55,80,3.5,NZ,1731194026
440,talavera,15.6167,120.9333,24.54,87,15,1.45,PH,1731194027
441,jawf al maqbabah,13.8378,45.8349,21.19,69,28,1.78,YE,1731194028
442,tyukhtet,56.5389,89.3011,-4.55,62,98,6.23,RU,1731194029
443,nako,31.8814,78.627,4.28,78,2,0.11,IN,1731194031
444,fuglafjordur,62.244,-6.814,8.83,96,77,7.79,FO,1731194032
445,talara,-4.5772,-81.2719,20.42,77,75,5.66,PE,1731194033
446,puerto ayacucho,5.6639,-67.6236,26.43,86,100,1.05,VE,1731194034
447,lobujya,27.95,86.8167,-9.94,17,0,2.77,NP,1731193554
448,sovetskaya gavan',48.9723,140.2878,-0.08,63,83,1.28,RU,1731194036
449,pangai,-19.8,-174.35,23.7,81,15,10.57,TO,1731194037
450,susaki,33.3667,133.2833,16.06,69,99,1.78,JP,1731194038
451,ujar,40.519,47.6542,11.85,59,100,1.84,AZ,1731194041
452,bubaque,11.2833,-15.8333,28.56,70,0,4.78,GW,1731194042
453,hun,29.1268,15.9477,17.08,50,44,2.17,LY,1731194043
454,safford,32.834,-109.7076,19.86,18,0,0.45,US,1731194044
455,emerald,-23.5333,148.1667,28.52,53,36,7.39,AU,1731194046
456,keflavik,64.0049,-22.5624,9.24,100,100,6.69,IS,1731194048
457,boa esperanca,-21.09,-45.5658,20.51,91,40,2.04,BR,1731194049
458,bolgatanga,10.7856,-0.8514,26.54,30,40,2.76,GH,1731194050
459,federacion,-31.0062,-57.8996,22.22,52,0,4.83,AR,1731193974
460,sitka,57.0531,-135.33,7.94,66,75,5.14,US,1731194054
461,huangshan,29.7114,118.3125,16.82,93,100,0.57,CN,1731194055
462,minas de marcona,-15.2119,-75.1103,15.6,71,100,4.91,PE,1731193818
463,kayangel,8.0823,134.7173,28.71,76,45,4.43,PW,1731193665
464,sambava,-14.2667,50.1667,22.59,79,6,3.3,MG,1731194059
465,santana do mundau,-9.1681,-36.2222,21.3,86,77,3.11,BR,1731194060
466,cabedelo,-6.9811,-34.8339,26.37,75,58,5.55,BR,1731194061
467,moncks corner,33.196,-80.0131,19.49,74,0,2.06,US,1731194062
468,el calafate,-50.3408,-72.2768,9.43,51,48,7.55,AR,1731194063
469,tamanrasset,22.785,5.5228,13.95,30,0,1.54,DZ,1731193668
470,saint-philippe,-21.3585,55.7679,23.82,89,43,4.73,RE,1731194066
471,butembo,0.15,29.2833,14.32,92,100,1.25,CD,1731194067
472,magadan,59.5667,150.8,-14.76,69,69,2.6,RU,1731194068
473,beloretsk,53.9631,58.3981,-0.55,95,100,7.28,RU,1731194069
474,ruidoso,33.3317,-105.673,10.08,25,0,5.66,US,1731194070
475,beyneu,45.3167,55.2,3.67,73,1,3.45,KZ,1731194071
476,zamora,-4.0692,-78.9567,23.97,73,76,1.18,EC,1731193810
477,kailua-kona,19.6406,-155.9956,28.09,77,75,3.6,US,1731194035
478,maharajganj,27.1333,83.5667,21.1,67,0,1.09,IN,1731194075
479,yreka,41.7354,-122.6345,14.1,33,0,0.0,US,1731193918
480,kupang,-10.1667,123.5833,29.32,70,20,2.06,ID,1731194077
481,mokhotlong,-29.2894,29.0675,13.42,77,100,2.22,LS,1731194078
482,darwin,-12.4611,130.8418,30.53,68,20,2.68,AU,1731194073
483,yuci,37.6803,112.7319,8.86,81,83,1.0,CN,1731194081
484,kamensk-ural'skiy,56.4185,61.9329,1.56,89,99,8.12,RU,1731193862
485,xapuri,-10.6517,-68.5044,23.58,94,98,1.11,BR,1731194083
486,san luis de la loma,17.2706,-100.8939,28.53,74,74,2.6,MX,1731194084
487,sechura,-5.5569,-80.8222,21.11,69,43,7.13,PE,1731194069
488,paka,4.6374,103.4368,23.88,94,100,1.6,MY,1731194087
489,flin flon,54.7682,-101.865,5.91,52,20,3.6,CA,1731194088
490,la sarre,48.8002,-79.1996,1.73,58,4,4.58,CA,1731194090
491,puerto lempira,15.2667,-83.7667,29.08,74,20,4.12,HN,1731194091
492,hastings,50.8552,0.5729,7.86,52,84,2.74,GB,1731194092
493,beloyarskiy,63.7119,66.6722,-10.66,92,89,4.09,RU,1731194093
494,nelson bay,-32.7167,152.15,23.94,77,71,2.24,AU,1731194094
495,lewistown,40.5992,-77.5714,8.67,46,0,0.0,US,1731194096
496,viedma,-40.8135,-62.9967,22.97,31,100,1.48,AR,1731194029
497,porto novo,6.4965,2.6036,27.21,79,100,3.33,BJ,1731193870
498,grants pass,42.439,-123.3284,15.91,58,40,0.0,US,1731194099
499,vilyuysk,63.7553,121.6247,-10.22,97,97,2.62,RU,1731194100
500,winston,28.0317,-82.0148,26.52,77,40,3.6,US,1731194102
501,karibib,-21.9333,15.8333,19.3,38,2,3.18,NA,1731194103
502,saint-joseph,-21.3667,55.6167,23.21,86,24,4.03,RE,1731194104
503,broken hill,-31.95,141.4333,20.14,36,97,6.13,AU,1731193943
504,sosnovo-ozerskoye,52.5249,111.5418,-15.55,98,45,1.89,RU,1731194106
505,harper,4.375,-7.7169,25.53,87,96,3.49,LR,1731194107
506,yeniseysk,58.4497,92.1703,-5.38,76,96,3.72,RU,1731194109
507,el granada,37.5027,-122.4694,20.35,51,0,3.6,US,1731194110
508,gdov,58.7406,27.8122,6.79,83,100,2.59,RU,1731194111
509,lompoc,34.6391,-120.4579,20.63,30,0,4.12,US,1731193547
510,orenburg,51.7727,55.0988,1.01,93,100,8.0,RU,1731193866
511,al bawiti,28.3492,28.8659,18.44,56,88,3.51,EG,1731194114
512,mata-utu,-13.2816,-176.1745,27.56,76,76,5.81,WF,1731194115
513,faya-largeau,17.9257,19.1043,21.6,33,2,7.24,TD,1731194116
514,chingirlau,51.095,54.0814,1.04,91,77,8.2,KZ,1731194118
515,elista,46.3078,44.2558,5.29,93,0,3.0,RU,1731194119
516,qamdo,31.1667,97.2333,-2.85,63,0,1.97,CN,1731194120
517,igarka,67.4667,86.5833,-10.27,90,100,7.2,RU,1731194121
518,port augusta,-32.5,137.7667,23.34,41,89,3.69,AU,1731194123
519,kolokani,13.5728,-8.0339,25.15,28,2,2.96,ML,1731194124
520,daru,-9.0763,143.2092,28.17,73,100,5.69,PG,1731194126
521,piacabucu,-10.4056,-36.4344,25.52,82,78,6.59,BR,1731194127
522,severo-yeniseyskiy,60.3725,93.0408,-10.21,85,100,5.45,RU,1731194128
523,broome,42.2506,-75.833,5.21,62,0,1.54,US,1731194130
524,tangalle,6.024,80.7911,24.68,90,54,2.01,LK,1731194131
525,trairi,-3.2778,-39.2689,25.54,81,16,4.99,BR,1731193928
526,regina,50.4501,-104.6178,11.66,54,7,2.24,CA,1731193834
527,anchau,10.9597,8.3916,19.14,34,48,2.02,NG,1731194135
528,sao felix do xingu,-6.6447,-51.995,26.29,70,75,1.28,BR,1731194136
529,massawa,15.6097,39.45,30.3,63,3,1.07,ER,1731194137
530,nova xavantina,-14.6667,-52.35,22.04,97,100,1.49,BR,1731194139
531,boali,4.8005,18.1275,22.56,88,100,2.02,CF,1731193874
532,nanlong,31.3533,106.0631,15.12,76,100,1.07,CN,1731194143
533,ceres,37.5949,-120.9577,22.21,32,0,0.0,US,1731194145
534,muhos,64.808,25.9931,0.52,76,96,1.53,FI,1731194146
535,jordanow,49.6493,19.8298,0.3,79,20,0.76,PL,1731194147
536,matoury,4.8483,-52.3317,27.98,83,0,3.09,GF,1731194149
537,kavieng,-2.5744,150.7967,28.61,74,100,3.02,PG,1731194150
538,palikir - national government center,6.9248,158.1611,31.41,66,40,4.12,FM,1731194064
539,abakan,53.7156,91.4292,-3.99,74,0,2.0,RU,1731193880
540,sale,34.0389,-6.8166,15.38,100,75,0.0,MA,1731194153
541,shizuishan,39.2333,106.7694,7.55,63,54,2.01,CN,1731194154
542,mattoon,39.4831,-88.3728,14.97,55,40,5.66,US,1731194011
543,ishinomaki,38.4167,141.3,10.34,79,0,1.31,JP,1731194156
544,yangambi,0.8102,24.4336,20.73,99,100,1.47,CD,1731194159
545,mashava,-20.0367,30.4823,22.45,51,61,1.46,ZW,1731194160
546,yumbe,3.4651,31.2469,20.06,78,96,2.04,UG,1731193964
547,riorges,46.0418,4.0497,8.01,92,40,1.12,FR,1731194162
548,ilebo,-4.3167,20.5833,21.03,96,100,0.74,CD,1731194164
549,maloye ganyushkino,46.6,49.2667,6.38,87,76,3.13,KZ,1731194165
550,celestun,20.8667,-90.4,27.3,80,61,2.87,MX,1731194166
551,biltine,14.5333,20.9167,23.58,22,47,3.05,TD,1731194168
